City,Cloudiness,Country,Date,Humidity,Lat,Lng,Max Temp,Wind Speed
Kapuskasing,75,CA,1603846223,74,49.42,-82.43,272.15,6.7
Yar-sale,0,RU,1603846223,92,66.83,70.83,256.54,2.87
Cape town,75,ZA,1603845958,87,-33.93,18.42,290.93,4.6
Mar del plata,0,AR,1603846213,87,-38,-57.56,288.15,3.1
Arraial do cabo,0,BR,1603846224,94,-22.97,-42.03,296.15,6.2
Albany,100,US,1603846224,77,42.6,-73.97,281.48,0.76
Saint george,1,US,1603846224,9,37.1,-113.58,289.15,2.22
Atbasar,100,KZ,1603846224,93,51.8,68.33,270.77,7.36
Verkhnyaya inta,100,RU,1603846224,98,65.98,60.31,270.34,2.69
Mahebourg,4,MU,1603846224,80,-20.41,57.7,294.26,1.34
Itarema,100,BR,1603846225,81,-2.92,-39.92,298.83,4.98
Ancud,90,CL,1603846225,93,-41.87,-73.82,282.04,5.7
Muros,100,ES,1603846225,88,42.78,-9.06,287.59,3.67
Tiksi,2,RU,1603846207,90,71.69,128.87,253.59,5.69
Busselton,0,AU,1603846225,81,-33.65,115.33,290.37,0.89
Cayenne,0,GF,1603845989,78,4.93,-52.33,301.15,1.5
Hofn,100,IS,1603846225,83,64.25,-15.21,276.73,9.7
Qaanaaq,99,GL,1603846014,81,77.48,-69.36,262.09,5.72
Rochelle,0,FR,1603846226,82,46.25,-1,288.15,5.1
Avarua,100,CK,1603846119,78,-21.21,-159.78,296.15,3.1
Mataura,95,NZ,1603846226,69,-46.19,168.86,288.15,3.58
Ushuaia,75,AR,1603846226,39,-54.8,-68.3,280.15,5.1
Moranbah,0,AU,1603846227,44,-22,148.05,302.3,5.28
Hermanus,100,ZA,1603846227,92,-34.42,19.23,288.71,0.45
Bluff,26,NZ,1603846227,69,-46.6,168.33,288.15,3.58
Shubarshi,0,KZ,1603846227,93,48.59,57.19,271.48,2.68
Tuatapere,100,NZ,1603846206,69,-46.13,167.68,288.15,3.58
Santo angelo,0,BR,1603846227,86,-28.3,-54.26,288.15,0.45
Dikson,100,RU,1603846015,95,73.51,80.55,258.49,7.59
Ishinomaki,75,JP,1603846228,67,38.42,141.3,287.15,2.1
Kapaa,75,US,1603846228,69,22.08,-159.32,301.15,2.6
Moron,19,AR,1603846228,73,-34.65,-58.62,290.93,0.89
Codrington,98,AU,1603846228,74,-38.27,141.97,289.21,2.11
Rikitea,100,PF,1603846228,83,-23.12,-134.97,297.37,7.34
Hobart,75,AU,1603845949,71,-42.88,147.33,288.15,4.6
Saskylakh,100,RU,1603846015,93,71.92,114.08,258.51,5.3
Los llanos de aridane,90,ES,1603846229,64,28.66,-17.92,295.15,4.1
Pangnirtung,0,CA,1603846229,76,66.15,-65.71,260.13,1.88
Altay,14,CN,1603846229,65,47.87,88.12,275.13,1.04
Nouadhibou,100,MR,1603846229,64,20.93,-17.03,297.15,7.7
Lasa,44,IT,1603846229,100,46.62,10.7,278.15,1.21
Calderitas,90,MX,1603846229,78,18.55,-88.25,301.15,6.2
Kindu,100,CD,1603846230,97,-2.95,25.95,293.33,0.53
Kavieng,82,PG,1603846230,66,-2.57,150.8,302.39,1.11
Vaini,20,TO,1603846230,73,-21.2,-175.2,298.15,5.7
Norman wells,20,CA,1603846230,85,65.28,-126.83,264.15,2.6
Georgetown,20,MY,1603845775,88,5.41,100.34,299.15,1.5
Dunedin,37,NZ,1603846231,70,-45.87,170.5,285.93,8.49
Yerbogachen,89,RU,1603846231,96,61.28,108.01,265.26,2.62
Llangefni,33,GB,1603846231,71,53.26,-4.31,284.26,10.3
Susurluk,40,TR,1603846231,93,39.91,28.16,290.37,1.14
Butaritari,44,KI,1603846076,65,3.07,172.79,300.37,1.35
Parana,0,AR,1603846231,67,-31.73,-60.52,291.48,4.06
Coihaique,90,CL,1603846231,86,-45.58,-72.07,278.15,2.1
Kolokani,100,ML,1603846232,20,13.57,-8.03,296.89,0.82
New norfolk,98,AU,1603846232,62,-42.78,147.06,288.15,0.45
Ponta do sol,75,PT,1603846075,64,32.67,-17.1,293.15,2.6
Torbay,90,CA,1603846098,100,47.67,-52.73,277.04,4.6
Taoudenni,0,ML,1603846232,17,22.68,-3.98,300.66,2.94
Abbeville,43,FR,1603846232,72,50.1,1.83,283.71,5.43
Samdari,0,IN,1603846232,22,25.82,72.58,295.05,2.03
Hasaki,75,JP,1603846233,82,35.73,140.83,290.37,2.1
Punta arenas,0,CL,1603846233,65,-53.15,-70.92,280.15,12.3
Barstow,1,US,1603846233,9,34.9,-117.02,294.15,3.1
Nanakuli,1,US,1603846233,69,21.39,-158.15,301.15,1.5
Paamiut,100,GL,1603846233,84,61.99,-49.67,270.86,7.86
Port alfred,85,ZA,1603846233,87,-33.59,26.89,290.59,5.96
Terekli-mekteb,3,RU,1603846233,70,44.17,45.87,285.13,7.8
Poltava,0,UA,1603846234,58,49.59,34.54,280.64,3.76
Llanes,100,ES,1603846234,73,43.42,-4.75,289.82,6.15
Ocos,75,GT,1603846234,94,14.51,-92.19,301.15,2.6
Union,90,US,1603846043,58,40.63,-74.27,287.15,1.81
Linhares,100,BR,1603845950,97,-19.39,-40.07,296.03,1.41
Bathsheba,40,BB,1603846235,88,13.22,-59.52,300.15,9.8
Bilma,0,NE,1603846235,25,18.69,12.92,293.18,1.48
Santa adelia,0,BR,1603846235,69,-21.24,-48.8,295.98,2.67
Aklavik,75,CA,1603846235,85,68.22,-135.01,262.15,1
Hithadhoo,85,MV,1603846235,66,-0.6,73.08,302,4.92
Khatanga,48,RU,1603846235,90,71.97,102.5,251.98,4.59
Adrar,0,MR,1603846235,17,20.5,-10.07,300.82,5.43
Lebu,100,CL,1603846235,84,-37.62,-73.65,283.61,5.08
Lagoa,100,PT,1603846236,61,39.05,-27.98,290.12,3.14
Evanston,75,US,1603845942,64,42.04,-87.69,276.48,1.5
Mocuba,0,MZ,1603846236,95,-16.84,36.99,293.93,1.17
Longyearbyen,75,SJ,1603846236,80,78.22,15.64,272.15,1
Nalut,100,LY,1603846236,93,30.33,10.85,285.96,4.39
Dubrovnik,0,HR,1603846236,77,42.65,18.09,289.15,4.1
Lorengau,77,PG,1603846236,63,-2.02,147.27,303.33,0.84
Sinalunga,0,IT,1603846237,93,43.22,11.75,281.48,0.98
Mount isa,0,AU,1603846237,12,-20.73,139.5,301.15,4.1
Iqaluit,90,CA,1603846237,73,63.75,-68.51,266.15,3.6
Kibala,0,TD,1603846237,94,9.11,18.35,297.15,1.6
Port keats,0,AU,1603846237,47,-14.25,129.55,305.9,0.79
Berlevag,100,NO,1603846014,80,70.86,29.09,277.03,4.29
Kodiak,1,US,1603846238,56,57.79,-152.41,280.15,9.8
Bethel,75,US,1603846095,57,41.37,-73.41,284.15,1.63
Sonoma,1,US,1603846238,19,38.55,-122.9,297.15,3.6
Kulhudhuffushi,1,MV,1603846238,74,6.62,73.07,301.14,2.78
Atuona,1,PF,1603846238,74,-9.8,-139.03,299.07,8.5
Muret,75,FR,1603846239,93,43.33,1.25,285.37,2.1
Suamico,1,US,1603846239,50,44.63,-88.04,274.15,1.5
Geraldton,75,AU,1603846239,53,-28.77,114.6,295.15,8.2
Victoria,100,HK,1603846037,77,22.29,114.16,298.15,0.45
Bengkulu,93,ID,1603846239,71,-3.8,102.27,300.37,1.01
Bredasdorp,100,ZA,1603846239,88,-34.53,20.04,290.15,2.1
East london,18,ZA,1603846240,74,-33.02,27.91,293.05,8.01
Bilibino,100,RU,1603846240,91,68.05,166.44,258.29,0.79
Conceicao das alagoas,30,BR,1603846240,67,-19.91,-48.39,297.95,1.59
Inirida,100,CO,1603846240,95,3.87,-67.92,297.51,1.43
Atar,6,MR,1603846240,22,20.52,-13.05,301.34,4.49
Waipawa,99,NZ,1603846241,72,-41.41,175.52,288.71,8.2
Padang,30,ID,1603846241,65,-0.95,100.35,301.23,0.9
San cristobal,92,VE,1603846241,92,7.77,-72.22,292.84,0.71
Saint-philippe,0,RE,1603846241,64,-21.36,55.77,294.15,1.5
Barrow,75,US,1603846241,74,71.29,-156.79,272.15,11.3
Fairbanks,90,US,1603846241,92,64.84,-147.72,271.48,1.86
Saint-denis,19,FR,1603846241,93,48.92,2.33,285.37,3.6
Portland,1,US,1603846167,50,45.52,-122.68,287.15,0.58
Ilhabela,15,BR,1603846242,85,-23.78,-45.36,295.7,3.1
Cabo san lucas,40,MX,1603846242,57,22.89,-109.91,297.15,7.7
Souillac,6,MU,1603846242,80,-20.52,57.52,294.26,1.34
Pevek,100,RU,1603846242,97,69.7,170.31,266.52,5.51
Xinzhou,100,CN,1603846244,41,38.41,112.73,282.29,0.56
Acapulco,75,MX,1603846244,79,16.86,-99.89,302.15,2.1
Hervey bay,75,AU,1603846094,73,-25.3,152.85,300.37,4.6
Chekhov,0,RU,1603846244,9,55.14,37.47,276.48,4.26
Petropavlovsk-kamchatskiy,40,RU,1603846244,75,53.05,158.65,279.15,1
Sao filipe,60,CV,1603846244,74,14.9,-24.5,300.24,1.9
Isangel,16,VU,1603846245,68,-19.55,169.27,299.75,7
Port elizabeth,0,ZA,1603846160,82,-33.92,25.57,290.15,8.7
Bubaque,1,GW,1603846245,81,11.28,-15.83,301.08,4.5
Meulaboh,82,ID,1603846245,84,4.14,96.13,298.48,1.78
Kazerun,0,IR,1603846245,33,29.62,51.65,287.15,1.66
Briancon,62,FR,1603846246,56,44.9,6.65,280.37,0.45
Almaznyy,20,RU,1603846246,75,48.04,40.05,281.15,10
Leningradskiy,0,RU,1603846246,91,69.38,178.42,266.04,8.34
Esperance,92,AU,1603846246,77,-33.87,121.9,293.15,7.2
Castro,0,BR,1603846246,67,-24.79,-50.01,288.48,2.01
Tura,0,IN,1603846247,87,25.52,90.22,294.21,1.67
Trelew,0,AR,1603846247,32,-43.25,-65.31,287.67,3.88
Batagay,90,RU,1603846247,93,67.63,134.63,258.51,0.85
Gaya,0,IN,1603846247,61,24.78,85,291.69,1.83
Komsomolskiy,100,UZ,1603846247,53,40.43,71.72,283.15,1
Clyde river,1,CA,1603846247,71,70.47,-68.59,260.15,3.1
Yellowknife,75,CA,1603846247,67,62.46,-114.35,265.15,2.1
Iskateley,100,RU,1603846248,97,67.68,53.15,274.21,5.02
Sanbu,73,CN,1603846248,71,33.46,119.15,291.62,5.61
Anloga,75,GH,1603846248,88,5.79,0.9,300.15,3.6
Dzialdowo,100,PL,1603846248,100,53.24,20.17,281.15,2.6
Sitka,75,US,1603846043,87,57.05,-135.33,281.15,3.6
Mogadishu,93,SO,1603846248,81,2.04,45.34,299.69,3.15
Biltine,0,TD,1603846249,19,14.53,20.92,299.58,4.14
Morros,99,BR,1603846108,90,-9.45,-46.3,296.13,0.59
Port lincoln,0,AU,1603846249,59,-34.73,135.87,290.7,3.49
Mahanoro,3,MG,1603846249,90,-19.9,48.8,293.6,1.88
Manaure,51,CO,1603846249,76,11.78,-72.44,301.49,5.9
Puerto ayora,100,EC,1603846249,92,-0.74,-90.35,293.15,0.89
Wajima,75,JP,1603846249,62,37.4,136.9,287.15,2.22
Silifke,0,TR,1603846250,63,36.38,33.93,294.49,2.13
Constitucion,0,CL,1603846250,80,-35.33,-72.42,282.77,3.69
Narsaq,100,GL,1603846049,80,60.92,-46.05,272.15,1.4
Jamestown,90,US,1603845993,100,42.1,-79.24,278.15,0.98
Vernon,100,CA,1603846165,65,50.26,-119.27,277.04,1.29
Kirakira,40,SB,1603846250,77,-10.45,161.92,302.27,4.3
Ngunguru,100,NZ,1603846250,73,-35.62,174.5,295.37,2.24
Ulaanbaatar,0,MN,1603845973,85,47.91,106.88,262.15,1
Namatanai,16,PG,1603846251,64,-3.67,152.43,303.52,0.72
Ribeira grande,100,PT,1603846251,60,38.52,-28.7,290.27,1.6
Christchurch,66,NZ,1603846251,62,-43.53,172.63,288.15,6.2
Airai,29,TL,1603846251,72,-8.93,125.41,295.76,1.34
Faanui,100,PF,1603846251,82,-16.48,-151.75,299.71,8.75
Thompson,75,CA,1603846251,68,55.74,-97.86,269.15,4.1
Dingle,41,PH,1603846252,76,11,122.67,301.77,0.95
Bambous virieux,6,MU,1603846252,80,-20.34,57.76,294.26,1.34
Tasiilaq,100,GL,1603846252,37,65.61,-37.64,274.15,9.8
Jawhar,100,SO,1603846252,85,2.78,45.5,298.07,2.62
Nikolskoye,75,RU,1603846252,87,59.7,30.79,284.26,4
Carnarvon,0,AU,1603846252,68,-24.87,113.63,295.15,10.8
Fort nelson,75,CA,1603846253,80,58.81,-122.7,272.15,2.6
Le port,0,RE,1603846253,77,-20.94,55.29,293.15,4.1
Bonthe,100,SL,1603846253,84,7.53,-12.51,299.44,2.38
Provideniya,75,RU,1603846253,95,64.38,-173.3,273.15,3
Virginia beach,0,US,1603846116,94,36.85,-75.98,291.48,2.81
Sao jose da coroa grande,85,BR,1603846253,80,-8.9,-35.15,298.18,4.97
Vardo,100,NO,1603846207,94,70.37,31.11,278.91,4.25
Grande prairie,90,CA,1603846254,75,55.17,-118.8,276.15,2.1
Nantucket,75,US,1603846254,81,41.28,-70.1,284.26,3.1
Margate,100,GB,1603846254,82,51.38,1.39,283.71,0.45
Elizabeth city,40,US,1603845956,95,36.29,-76.25,291.48,2.12
Kruisfontein,0,ZA,1603846254,96,-34,24.73,287.59,2.97
Gat,100,IL,1603845960,100,31.61,34.76,297.04,1.51
Acheng,0,CN,1603846255,69,45.55,126.98,277.04,3
Banjarmasin,97,ID,1603846255,75,-3.32,114.59,301.62,1.1
Naryan-mar,100,RU,1603846255,97,67.67,53.09,274.27,5.04
Akureyri,90,IS,1603846255,64,65.68,-18.09,276.15,3.6
Kavaratti,88,IN,1603846255,75,10.57,72.64,300.7,2.97
Nanzhou,99,CN,1603846255,59,29.36,112.4,288.02,5.6
Newry,86,GB,1603846256,80,54.18,-6.34,280.37,2.68
Conakry,100,GN,1603846256,81,9.54,-13.68,300.62,2.68
Nelson bay,90,AU,1603846139,72,-32.72,152.15,292.04,3.6
Nazas,0,MX,1603846256,28,25.23,-104.13,296.96,5.52
Tuktoyaktuk,90,CA,1603846256,92,69.45,-133.04,262.15,5.7
Riyadh,0,SA,1603846256,36,24.69,46.72,290.15,0.89
Katsuura,75,JP,1603846257,72,35.13,140.3,292.59,1.5
Lavrentiya,71,RU,1603846257,90,65.58,-171,272.11,3.94
Rawson,0,AR,1603846019,34,-43.3,-65.1,287.74,4.48
Graaff-reinet,77,ZA,1603846257,66,-32.25,24.53,290.74,0.45
Maceio,75,BR,1603845966,83,-9.67,-35.74,298.15,2.6
Muisne,100,EC,1603846257,88,0.6,-80.03,296.55,5.17
Walla walla,1,US,1603846257,53,46.06,-118.34,283.71,0.17
Severo-kurilsk,0,RU,1603846257,77,50.68,156.12,280.58,2.35
Te anau,100,NZ,1603846258,49,-45.42,167.72,288.18,1.44
Maniitsoq,0,GL,1603846258,86,65.42,-52.9,266.87,3.22
Tilichiki,7,RU,1603846258,89,60.47,166.1,270.07,4.37
Turbana,40,CO,1603846258,83,10.27,-75.44,302.15,2.1
Arlit,0,NE,1603846258,16,18.74,7.39,298.42,3.33
Cidreira,100,BR,1603846258,87,-30.18,-50.21,290.41,5.24
Almansa,56,ES,1603846259,69,38.87,-1.1,282.04,1.34
Ilulissat,86,GL,1603846259,66,69.22,-51.1,264.15,0.5
Horta,100,PT,1603846259,61,38.53,-28.63,290.01,1.52
Lodeynoye pole,100,RU,1603846259,88,60.73,33.55,281.89,4.89
Minas,90,UY,1603846259,93,-34.38,-55.24,288.71,7.7
Promyshlennovskiy,40,RU,1603846259,75,55.48,86.2,278.15,8
Koroni,40,GR,1603846259,82,36.8,21.95,290.93,2.55
Vaasa,0,FI,1603846260,93,63.1,21.62,281.15,3.6
Auki,9,SB,1603846260,65,-8.77,160.7,304.01,2.73
Dudinka,0,RU,1603846260,85,69.41,86.18,252.64,2.6
Puerto carreno,100,CO,1603846260,80,6.19,-67.49,299.29,3.87
Vestmannaeyjar,30,IS,1603846260,70,63.44,-20.27,278.27,11.08
Chuy,100,UY,1603846260,95,-33.7,-53.46,289.99,6.14
Mezen,100,RU,1603846261,97,65.85,44.24,277.59,4.73
Nanortalik,100,GL,1603846261,90,60.14,-45.24,272.29,1.49
Buzuluk,100,RU,1603846261,91,52.78,52.26,272.57,0.49
Harrisonburg,1,US,1603845764,93,38.45,-78.87,289.82,1.19
Buchanan,75,LR,1603846261,94,5.88,-10.05,299.15,2.29
Luderitz,0,NA,1603846262,79,-26.65,15.16,286.86,4.7
Snyder,90,US,1603846197,99,32.72,-100.92,273.15,6.2
Chama,90,CH,1603846262,87,47.18,8.46,280.93,0.92
Monrovia,75,LR,1603846174,94,6.3,-10.8,299.15,2.29
Puerto escondido,90,MX,1603846262,69,15.85,-97.07,299.15,2.1
Skelleftea,98,SE,1603846262,100,64.75,20.95,278.15,1.5
Vitim,15,RU,1603846262,91,59.45,112.56,263.34,1.18
Leh,0,IN,1603846262,68,34.17,77.58,270.66,0.44
Kaura namoda,0,NG,1603846263,25,12.59,6.58,297.06,1.89
Pecos,90,US,1603846263,92,31.42,-103.49,272.15,4.6
Vostok,100,RU,1603846263,98,46.49,135.88,274.45,0.83
Boa vista,20,BR,1603846033,58,2.82,-60.67,303.15,2.1
Sorland,100,NO,1603846263,66,67.67,12.69,281.34,3.59
Praia da vitoria,75,PT,1603846263,72,38.73,-27.07,290.15,2.65
Sayansk,18,RU,1603846264,95,54.11,102.16,271.56,3.4
Iracoubo,6,GF,1603846264,79,5.48,-53.2,300.35,4.47
Kudahuvadhoo,86,MV,1603846264,77,2.67,72.89,301.35,6.84
Bardiyah,0,LY,1603846264,66,31.76,25.09,294.1,5.94
Bonavista,100,CA,1603846263,83,48.65,-53.11,275.93,1.34
Soyo,100,AO,1603846264,88,-6.13,12.37,298.13,4.09
Smithers,90,CA,1603846264,93,54.78,-127.17,278.15,1
Upernavik,0,GL,1603846264,78,72.79,-56.15,264.39,2.4
Carmo do rio claro,21,BR,1603846265,83,-20.97,-46.12,293.79,1.28
Coihueco,20,CL,1603846265,66,-36.62,-71.83,285.15,3.6
Japura,91,ID,1603846265,82,-0.32,102.35,299.42,0.93
Hilo,90,US,1603846265,74,19.73,-155.09,300.15,4.1
Hobyo,2,SO,1603846265,79,5.35,48.53,299.22,2.35
Fortuna,1,US,1603846092,66,40.6,-124.16,289.26,3.1
Farafangana,2,MG,1603846266,89,-22.82,47.83,294.35,1.16
Itaituba,99,BR,1603846266,73,-4.28,-55.98,300.67,0.67
Roma,90,US,1603846203,87,43.21,-75.46,279.15,0.8
Sembe,100,CG,1603846266,91,1.65,14.58,294.07,0.42
Sinnamary,26,GF,1603846266,80,5.38,-52.95,300.02,4.38
Yeppoon,20,AU,1603846266,54,-23.13,150.73,302.15,2.6
Axim,100,GH,1603846266,86,4.87,-2.24,298.94,3.2
Sakaiminato,75,JP,1603846267,87,35.55,133.23,287.15,3.6
Faya,0,SA,1603846267,27,18.39,42.45,286.15,2.24
San patricio,90,US,1603846267,81,28.02,-97.52,285.15,6.7
San andres,40,CO,1603846158,83,12.58,-81.7,302.15,3.1
Leninskoye,0,KZ,1603846267,41,41.76,69.39,279.15,1
Alofi,40,NU,1603846268,69,-19.06,-169.92,299.15,8.7
Egvekinot,88,RU,1603846268,93,66.32,-179.17,266.04,1.4
Grand gaube,0,MU,1603846268,80,-20.01,57.66,294.26,1.34
Cabedelo,20,BR,1603846268,78,-6.98,-34.83,299.15,3.1
Salalah,20,OM,1603846269,53,17.02,54.09,298.15,1
Duku,89,NG,1603846269,36,11.24,4.91,296.63,1.29
Galgamacsa,3,HU,1603846269,93,47.7,19.39,284.82,1.5
Kielce,16,PL,1603846269,100,50.87,20.63,283.15,1.26
Turan,90,VN,1603846269,94,16.07,108.22,298.15,14.4
Narasannapeta,49,IN,1603846270,71,18.42,84.05,295.83,2.3
Sosua,75,DO,1603846270,100,19.77,-70.52,299.26,5.1
Candelaria,34,PH,1603846270,74,13.93,121.42,301.82,2.04
Sri aman,20,MY,1603846270,88,1.24,111.46,299.15,2.1
Trofors,0,NO,1603846270,70,65.53,13.41,281.15,4.1
Brae,0,GB,1603846270,81,60.4,-1.35,282.15,7.2
Saldanha,100,ZA,1603846271,87,-33.01,17.94,288.15,1
Kaitangata,0,NZ,1603846271,56,-46.28,169.85,286.3,3.42
Mglin,0,RU,1603846271,82,53.06,32.85,279.41,4.42
Ust-kulom,100,RU,1603846271,94,61.69,53.69,274.52,3.51
Teguldet,52,RU,1603846271,82,57.31,88.17,277.91,4.52
Brenham,90,US,1603846085,93,30.17,-96.4,282.15,5.1
Quatre cocos,7,MU,1603846272,80,-20.21,57.76,294.26,1.34
Itapetininga,0,BR,1603846272,63,-23.59,-48.05,293.65,1.84
Yamada,0,JP,1603846272,51,39.47,141.95,288.41,1
Madang,99,PG,1603846272,60,-5.22,145.8,303.83,2.03
Santa rosa,75,PH,1603846272,70,14.31,121.11,304.26,2.6
Grindavik,0,IS,1603846273,55,63.84,-22.43,277.15,10.8
Barra patuca,100,HN,1603846273,83,15.8,-84.28,300.27,3.68
Antofagasta,75,CL,1603845977,82,-23.65,-70.4,288.15,7.2
Friesoythe,100,DE,1603846273,94,53.02,7.85,283.71,3.13
Kahului,40,US,1603846273,66,20.89,-156.47,302.15,3.6
Sao joao da barra,100,BR,1603846273,90,-21.64,-41.05,296.79,6.54
Nuevitas,100,CU,1603846273,88,21.55,-77.26,299.15,4.6
San miguel de cauri,100,PE,1603846274,80,-10.1,-76.58,282.39,0.54
Srednekolymsk,83,RU,1603846274,90,67.45,153.68,263.68,3.46
Ciney,100,BE,1603846274,93,50.29,5.1,284.82,1.34
Cochrane,1,CA,1603846274,56,51.18,-114.47,284.15,5.1
Mecca,0,SA,1603846274,68,21.43,39.83,295.53,0.39
Nemuro,75,JP,1603846274,76,43.32,145.57,284.15,2.1
Buin,40,CL,1603846274,47,-33.73,-70.75,286.15,3.1
Qasigiannguit,99,GL,1603846275,66,68.82,-51.19,264.15,0.5
Amfiklia,100,GR,1603846275,69,38.63,22.58,288.71,0.4
Kajaani,90,FI,1603846275,93,64.23,27.73,280.15,2.6
Eydhafushi,28,MV,1603846275,75,5.1,73.07,301.29,3.68
Konza,100,KE,1603846275,86,-1.74,37.13,289.8,3.28
Marawi,42,PH,1603846275,77,8,124.29,301.48,0.89
Westlock,90,CA,1603846276,93,54.15,-113.87,276.15,6.2
Chokurdakh,100,RU,1603846276,97,70.63,147.92,262.49,1.7
Katobu,49,ID,1603846276,50,-4.94,122.53,304.96,1.82
Ust-nera,90,RU,1603846276,81,64.57,143.2,262.44,0.78
Vila velha,75,BR,1603846276,88,-20.33,-40.29,298.15,5.1
Ambon,62,ID,1603846276,71,-3.7,128.18,301.92,1.19
Mionica,98,BA,1603846277,84,44.87,18.46,283.71,2.04
Menongue,59,AO,1603846277,44,-14.66,17.69,297.08,3.94
Marevo,26,RU,1603846277,82,57.31,32.08,281.52,5.73
Manono,95,CD,1603846277,88,-7.3,27.42,294.37,0.84
Tazovskiy,0,RU,1603846277,89,67.47,78.7,253.35,3.67
Sumenep,80,ID,1603846120,66,-7.02,113.87,302.66,3.4
Ulladulla,75,AU,1603846278,77,-35.35,150.47,290.15,3.6
North bend,1,US,1603846278,71,43.41,-124.22,286.15,8.7
Otradnoye,75,RU,1603846278,87,59.78,30.82,284.26,4
Nampula,75,MZ,1603846278,88,-15.12,39.27,295.15,1.5
Rio gallegos,75,AR,1603846278,31,-51.62,-69.22,283.15,3.6
Pattaya,40,TH,1603846087,94,12.93,100.88,302.04,3.1
Otaki,100,NZ,1603846278,86,-40.76,175.15,288.71,4.02
Awjilah,0,LY,1603846278,40,29.11,21.29,294.5,5.11
Salinopolis,44,BR,1603846279,84,-0.61,-47.36,299.91,4.96
Coquimbo,0,CL,1603846239,87,-29.95,-71.34,285.15,2.6
Misratah,1,LY,1603846279,65,32.38,15.09,293.4,8.03
Rio grande,100,BR,1603846279,99,-32.03,-52.1,290.37,3.58
Mareeba,40,AU,1603846279,55,-17,145.43,303.15,1.5
Presidencia roque saenz pena,0,AR,1603846279,58,-26.79,-60.44,293.58,3.33
Cherskiy,100,RU,1603846202,93,68.75,161.3,263.48,3.83
Calabozo,0,VE,1603846279,87,8.92,-67.43,297.56,2.17
Biak,76,ID,1603846280,64,-0.91,122.88,302.03,1.86
Charters towers,0,AU,1603846280,42,-20.1,146.27,302.08,2.41
Bousso,14,TD,1603846280,42,10.48,16.71,297.9,0.89
San ramon,1,US,1603846280,11,37.78,-121.98,296.15,3.1
Toamasina,20,MG,1603846280,100,-18.17,49.38,291.15,1
Kapit,100,MY,1603846280,72,2.02,112.93,300.92,0.76
Tutoia,49,BR,1603846280,80,-2.76,-42.27,299.82,5.59
Amalapuram,98,IN,1603846281,75,16.58,82.02,297,1.46
Alice springs,0,AU,1603846198,14,-23.7,133.88,299.15,2.6
Blagodatnoye,75,RU,1603846281,93,45.4,42.59,282.15,7
Petawawa,90,CA,1603846281,97,45.9,-77.33,273.15,3.1
Mponela,0,MW,1603846281,73,-13.53,33.74,291.72,4.09
Berezovyy,90,RU,1603846282,73,51.67,135.7,276.42,1.25
Coos bay,1,US,1603846282,71,43.37,-124.22,286.15,8.7
Nanning,0,CN,1603846282,88,22.82,108.32,295.15,3
Mana,94,GF,1603846282,81,5.66,-53.78,300.01,4.14
Vojka,0,RS,1603846282,100,44.94,20.15,283.15,0.5
Newport,92,GB,1603846282,94,51.59,-3,282.04,1.34
Sistranda,0,NO,1603846282,86,63.73,8.83,278.15,2.6
Sorong,46,ID,1603846187,77,-0.88,131.25,301.38,1.9
Fare,10,PF,1603846283,81,-16.7,-151.02,300.12,8.68
Bolshaya martynovka,97,RU,1603846283,72,47.27,41.67,281.75,7.26
Nadvoitsy,100,RU,1603846283,92,63.87,34.32,282.61,5.49
Sur,0,OM,1603846283,65,22.57,59.53,294.58,0.8
Aripuana,43,BR,1603846283,80,-9.17,-60.63,297.95,0.99
Svetlyy,0,RU,1603846284,93,54.67,20.13,281.15,3
Tshikapa,100,CD,1603846284,94,-6.42,20.8,295.46,1.4
Carauari,100,BR,1603846284,95,-4.88,-66.9,297.81,0.84
Namibe,0,AO,1603846284,79,-15.2,12.15,294.88,1.46
Praya,100,CV,1603846164,83,14.92,-23.51,299.15,6.7
Janovice nad uhlavou,89,CZ,1603846026,100,49.35,13.22,278.15,0.5
Les cayes,0,HT,1603846284,82,18.2,-73.75,298.89,1.49
Jalu,0,LY,1603846285,43,29.03,21.55,294.35,4.57
Saint-pierre,0,RE,1603846285,64,-21.34,55.48,294.15,1.5
Palapye,0,BW,1603846285,40,-22.55,27.13,295.27,4.18
Aviles,90,ES,1603846285,87,43.55,-5.92,288.15,4.6
San policarpo,0,PH,1603846285,69,12.18,125.51,302.5,1.28
Shelby,90,US,1603846286,87,35.2,-89.87,288.15,3.6
Saint-louis,0,SN,1603846286,13,16.33,-15,303.43,3.23
Hokitika,98,NZ,1603846286,70,-42.72,170.97,288,3.25
Mbuguni,75,TZ,1603846286,88,-3.57,36.95,294.15,3.6
Laguna,1,US,1603846286,18,38.42,-121.42,296.15,2.1
Hami,0,CN,1603846286,48,42.8,93.45,280.1,4
Kamyzyak,0,RU,1603846286,69,46.11,48.07,276.15,5
Lensk,0,RU,1603846287,92,60.73,114.93,264.24,1.07
Richland,90,US,1603846236,100,40.78,-82.55,279.15,2.6
Watsa,74,CD,1603846287,100,3.04,29.54,291.21,0.48
Nakambala,13,ZM,1603846287,41,-15.83,27.78,294.34,3.19
Segezha,100,RU,1603846287,92,63.74,34.32,282.62,5.89
Zhanaozen,0,KZ,1603846287,74,43.3,52.8,274.28,5.82
Sechura,87,PE,1603846287,76,-5.56,-80.82,292.56,5.89
Havre,75,FR,1603846288,87,49.58,0.33,285.15,8.2
Kenitra,0,MA,1603846288,81,34.26,-6.58,285.15,1.5
Kununurra,98,AU,1603846288,55,-15.77,128.73,305.15,2.1
Myitkyina,0,MM,1603846288,77,25.38,97.4,296.38,0.89
Kijang,100,KR,1603846288,38,35.24,129.21,288.15,2.1
Medea,20,DZ,1603846288,93,36.26,2.75,284.15,0.92
West bay,20,KY,1603846289,83,19.37,-81.42,301.48,2.6
Lompoc,1,US,1603846052,45,34.64,-120.46,294.15,5.1
Prince rupert,90,CA,1603846289,93,54.32,-130.32,282.15,1
Banon,0,ES,1603846289,66,40.84,-1.19,283.15,2.6
Oyek,0,RU,1603846289,74,52.59,104.46,274.15,5
Savannakhet,75,LA,1603846289,88,16.57,104.75,295.15,1
Barao de melgaco,0,BR,1603846289,55,-16.19,-55.97,304.15,3.6
Anadyr,20,RU,1603846290,85,64.75,177.48,265.15,3
Saint-francois,90,FR,1603846290,81,46.42,3.91,285.15,2.6
Pochutla,75,MX,1603846290,83,15.74,-96.47,298.15,0.44
Kondagaon,0,IN,1603846290,76,19.6,81.67,290.28,1.03
Winnemucca,1,US,1603846290,19,40.97,-117.74,288.15,2.1
Vana-vigala,100,EE,1603846290,87,58.78,24.25,281.48,4.47
Kamaishi,40,JP,1603846291,87,39.27,141.88,281.15,1.5
Ancona,16,IT,1603846291,100,43.55,13.17,285.37,1.5
Mount gambier,0,AU,1603846291,59,-37.83,140.77,290.15,1
Wejherowo,0,PL,1603846291,93,54.61,18.24,282.04,4.6
Shingu,75,JP,1603846291,52,33.73,135.98,292.15,0.5
Henties bay,97,NA,1603846291,87,-22.12,14.28,288.15,0.45
Svetlaya,61,RU,1603846292,65,46.54,138.33,281.58,1.81
Havelock,20,US,1603846292,93,34.88,-76.9,292.04,2.1
Richards bay,0,ZA,1603846292,80,-28.78,32.04,295.96,7.15
Kangaatsiaq,99,GL,1603846292,93,68.31,-53.46,268.26,3.75
Muravlenko,0,RU,1603846292,92,63.79,74.52,256.63,5.65
Acquaviva,14,SM,1603846292,93,43.95,12.42,284.82,2.1
Wanning,100,CN,1603846292,90,18.8,110.4,298.84,9.75
Homestead,88,US,1603846130,91,25.47,-80.48,300.37,1.79
Labuhan,100,ID,1603846293,75,-6.88,112.21,301.18,4.2
College,90,US,1603846293,92,64.86,-147.8,271.48,1.89
San antonio,90,US,1603846014,87,29.42,-98.49,280.37,4.6
Pimentel,66,PE,1603846293,87,-6.84,-79.93,290.4,5.73
Palu,100,ID,1603846293,56,-0.89,119.87,303.61,0.68
Mazagao,0,BR,1603846293,79,-0.12,-51.29,302.15,3.1
Tolaga bay,100,NZ,1603846207,82,-38.37,178.3,285.48,1.38
Abu dhabi,0,AE,1603846262,69,24.47,54.37,297.15,0.5
Kurilsk,100,RU,1603846294,62,45.23,147.88,281.52,2.32
Maragogi,89,BR,1603846101,81,-9.01,-35.22,297.88,4.6
Peniche,99,PT,1603846294,88,39.36,-9.38,289.82,4.47
Kieta,38,PG,1603846294,62,-6.22,155.63,303.86,1.78
La ronge,90,CA,1603846294,92,55.1,-105.28,270.15,4.1
Bandarbeyla,21,SO,1603846294,81,9.49,50.81,296.87,1.52
Benguela,14,AO,1603846295,81,-12.58,13.41,296.54,2.21
Andenes,100,NO,1603846295,93,69.31,16.12,275.15,3.6
Campo verde,0,BR,1603846295,64,-20.42,-54.07,296.15,0.5
Qui nhon,100,VN,1603846295,83,13.77,109.23,297.45,24.26
Nabire,100,ID,1603846148,67,-3.37,135.48,302,0.37
Ahipara,22,NZ,1603846295,63,-35.17,173.17,294.01,1.54
Thyolo,0,MW,1603846295,87,-16.07,35.14,290.85,0.82
Clarence town,75,AU,1603846296,77,-32.58,151.78,292.04,3.6
Vanavara,99,RU,1603846296,92,60.34,102.28,266.71,4.95
Haines junction,100,CA,1603846296,95,60.75,-137.51,272.01,1.01
Paita,54,PE,1603846296,87,-5.09,-81.11,290.88,6.11
Huarmey,88,PE,1603846296,85,-10.07,-78.15,290.98,3.22
Okhotsk,0,RU,1603846297,81,59.38,143.3,272.47,3.14
Pedernales,1,DO,1603846297,71,18.04,-71.74,300.22,0.44
Chernyshevskiy,94,RU,1603846297,97,63.01,112.47,263.47,1.62
Beisfjord,0,NO,1603846297,92,68.38,17.6,271.15,2.6
Tocopilla,5,CL,1603846297,57,-22.09,-70.2,289,2.86
Port-gentil,100,GA,1603846297,84,-0.72,8.78,298.75,3.58
Mackay,25,AU,1603846297,54,-21.15,149.2,303.15,5.7
Yuci,0,CN,1603846298,52,37.68,112.73,281.15,1
Zhezkazgan,16,KZ,1603846298,94,47.8,67.71,271.16,4.84
Ozinki,5,RU,1603846298,91,51.18,49.68,272.55,2.05
Beidao,100,CN,1603846298,68,34.57,105.89,281.33,0.49
Puri,0,IN,1603846298,62,19.8,85.85,296.84,4.06
Makakilo city,1,US,1603846298,69,21.35,-158.09,301.15,1.5
Saurimo,100,AO,1603846298,95,-9.66,20.39,292.38,0.35
Umm kaddadah,0,SD,1603846299,21,13.6,26.69,300.44,6.92
Odweyne,24,SO,1603846299,31,9.41,45.06,292.12,4.98
Tateyama,75,JP,1603846299,77,34.98,139.87,292.04,4.1
Harper,43,LR,1603846299,87,4.38,-7.72,298.73,2.96
Darnah,1,LY,1603846299,52,32.77,22.64,296.19,10.76
Hambantota,81,LK,1603846299,81,6.12,81.12,299.14,2.92
Pisco,0,PE,1603846299,82,-13.7,-76.22,290.37,8.7
Kisangani,100,CD,1603846300,98,0.52,25.2,295.37,1.24
San juan,99,AR,1603846159,23,-31.54,-68.54,295.35,6.18
Pacific grove,1,US,1603846032,16,36.62,-121.92,296.15,3.6
Beringovskiy,65,RU,1603846300,92,63.05,179.32,270.79,5.59
Tezu,14,IN,1603846300,55,27.92,96.17,295.83,1.09
Gao,0,ML,1603846300,16,16.64,1.64,299.33,4.04
Yigou,100,CN,1603846300,55,35.81,114.32,287.07,1.57
Sibolga,28,ID,1603846301,68,1.74,98.78,300.36,0.66
Chicama,95,PE,1603846301,80,-7.84,-79.15,291.39,2.24
Mandali,0,IQ,1603846301,26,33.75,45.55,290.95,1.65
Korla,0,CN,1603846301,93,41.76,86.15,277.04,2.11
Tucupita,10,VE,1603846301,98,9.06,-62.05,296.97,1.54
Ziro,0,IN,1603846301,100,27.63,93.83,283.1,1.35
Ballina,75,AU,1603846302,73,-28.87,153.57,296.15,5.1
Ingham,90,US,1603846302,100,42.6,-84.38,275.37,2.81
Kidal,0,ML,1603846302,16,18.44,1.41,298.45,3.42
Half moon bay,1,US,1603846302,48,37.46,-122.43,298.15,5.1
Lomza,100,PL,1603846303,83,53.18,22.06,283.71,1.94
Bom jesus,98,BR,1603846303,90,-9.07,-44.36,296.24,1.24
Kalmunai,2,LK,1603846303,80,7.42,81.82,299.27,2.84
Chalchihuites,53,MX,1603846303,60,23.48,-103.88,287.39,5.07
Manggar,85,ID,1603846303,75,-2.88,108.27,301.37,2.99
Villarrubia de los ojos,76,ES,1603846303,88,39.22,-3.61,282.04,1.79
Corinto,99,GR,1603846303,60,37.94,22.96,288.71,0.89
Guaymas,5,MX,1603846303,19,27.93,-110.9,295.15,7.7
Torzhok,6,RU,1603846304,83,57.04,34.96,279.8,4.44
Igarka,0,RU,1603846304,87,67.47,86.58,254.99,3.86
Killybegs,100,IE,1603846304,92,54.63,-8.45,280.37,2.68
Vila,99,PT,1603846304,95,42.03,-8.16,285.37,0.89
Elban,100,RU,1603846304,74,50.1,136.51,277.08,2.13
Constantine,20,DZ,1603846304,93,36.37,6.61,280.15,1
Ghanzi,0,BW,1603846304,24,-21.57,21.78,297.17,7.09
Hwange,0,ZW,1603846305,31,-18.37,26.5,296.52,2.22
Beitbridge,0,ZW,1603846305,41,-22.22,30,295.62,2.67
Guerrero negro,0,MX,1603846305,27,27.98,-114.06,292.33,8.72
Islamkot,0,PK,1603846186,43,24.7,70.18,297.04,1.83
Santa cruz,0,BO,1603846241,69,-17.8,-63.17,299.15,4.6
Ojinaga,90,MX,1603846305,56,29.57,-104.42,278.15,2.6
Krasnoselkup,0,RU,1603846305,88,65.7,82.47,254.34,6.63
Ukiah,1,US,1603846231,10,39.15,-123.21,302.15,2.6
Foso,43,GH,1603846306,97,5.7,-1.29,295.81,1.01
Agropoli,100,IT,1603846306,88,40.35,15,283.71,1.34
Sabang,96,ID,1603846306,74,5.89,95.32,300.92,9.34
Rundu,19,NA,1603846306,26,-17.93,19.77,295.26,2.14
Filiatra,40,GR,1603846307,82,37.15,21.58,290.93,3.31
Nola,20,IT,1603846307,87,40.92,14.53,287.04,2.1
Caravelas,100,BR,1603846307,90,-17.71,-39.25,298.25,4.71
Kabinda,78,CD,1603846307,93,-6.13,24.48,292.9,0.64
Aksu,100,CN,1603846307,58,41.12,80.26,278.16,1.2
Manicore,60,BR,1603846308,92,-5.81,-61.3,296.83,1.17
Ciudad bolivar,0,VE,1603846308,72,8.12,-63.55,300.29,5.02
